{"success":true,"data":[{"id":"jinan","name":"济南市","lat":36.6702,"lng":117.0204},{"id":"qingdao","name":"青岛市","lat":36.0671,"lng":120.3826},{"id":"zibo","name":"淄博市","lat":36.8046,"lng":118.0572},{"id":"zaozhuang","name":"枣庄市","lat":34.8796,"lng":117.328},{"id":"dongying","name":"东营市","lat":37.4346,"lng":118.6748},{"id":"yantai","name":"烟台市","lat":37.4635,"lng":121.4476},{"id":"weifang","name":"潍坊市","lat":36.7064,"lng":119.1618},{"id":"jining","name":"济宁市","lat":35.4152,"lng":116.5872},{"id":"taian","name":"泰安市","lat":36.1982,"lng":117.0877},{"id":"weihai","name":"威海市","lat":37.5018,"lng":122.1152},{"id":"rizhao","name":"日照市","lat":35.4162,"lng":119.5275},{"id":"linyi","name":"临沂市","lat":35.1047,"lng":118.3564},{"id":"dezhou","name":"德州市","lat":37.4527,"lng":116.3551},{"id":"liaocheng","name":"聊城市","lat":36.456,"lng":115.9854},{"id":"binzhou","name":"滨州市","lat":37.3826,"lng":118.0168},{"id":"heze","name":"菏泽市","lat":35.2397,"lng":115.4807},{"id":"laiwu","name":"莱芜区","lat":36.2134,"lng":117.6757}]}